[
  {
    "station": 1,
    "name": "Reykjavík",
    "type": "sk",
    "owner": "Veðurstofa Íslands",
    "lat": 64.1288833618,
    "lon": -21.9081897736,
    "ele": 60.2000007629,
    "start": 1920,
    "ending": null
  },
  {
    "station": 108,
    "name": "Stafholtsey",
    "type": "sk",
    "owner": "Veðurstofa Íslands",
    "lat": 64.6419296265,
    "lon": -21.5907497406,
    "ele": 14,
    "start": 1988,
    "ending": 2017
  },
  {
    "station": 155,
    "name": "Haukatunga",
    "type": "sk",
    "owner": "Veðurstofa Íslands",
    "lat": 64.8162231445,
    "lon": -22.2555904388,
    "ele": 45,
    "start": 1943,
    "ending": 1989
  },
  {
    "station": 164,
    "name": "Neðri-Hóll",
    "type": "sk",
    "owner": "Veðurstofa Íslands",
    "lat": 64.8000030518,
    "lon": -23.033000946,
    "ele": 8,
    "start": 1994,
    "ending": 1997
  },
  {
    "station": 165,
    "name": "Garðar",
    "type": "sk",
    "owner": "Veðurstofa Íslands",
    "lat": 64.8138504028,
    "lon": -23.139919281,
    "ele": 12,
    "start": 1989,
    "ending": 1994
  },
  {
    "station": 170,
    "name": "Gufuskálar",
    "type": "sk",
    "owner": "Veðurstofa Íslands",
    "lat": 64.9022521973,
    "lon": -23.9319095612,
    "ele": 7,
    "start": 1970,
    "ending": 1994
  },
  {
    "station": 171,
    "name": "Hellissandur",
    "type": "sk",
    "owner": "Veðurstofa Íslands",
    "lat": 64.9169998169,
    "lon": -23.8829994202,
    "ele": 12,
    "start": 1934,
    "ending": 1970
  },
  {
    "station": 293,
    "name": "Litla-Ávík",
    "type": "sk",
    "owner": "Veðurstofa Íslands",
    "lat": 66.0211715698,
    "lon": -21.4248409271,
    "ele": 8.1000003815,
    "start": 1995,
    "ending": null
  },
  {
    "station": 295,
    "name": "Gjögur",
    "type": "sk",
    "owner": "Veðurstofa Íslands",
    "lat": 65.987487793,
    "lon": -21.3521099091,
    "ele": 5,
    "start": 1971,
    "ending": 1995
  },
  {
    "station": 310,
    "name": "Tannstaðabakki",
    "type": "sk",
    "owner": "Veðurstofa Íslands",
    "lat": 65.2829971313,
    "lon": -21.1000003815,
    "ele": 8,
    "start": 1984,
    "ending": 1997
  },
  {
    "station": 340,
    "name": "Hjaltabakki",
    "type": "sk",
    "owner": "Veðurstofa Íslands",
    "lat": 65.6330032349,
    "lon": -20.2999992371,
    "ele": 43,
    "start": 1967,
    "ending": 1981
  },
  {
    "station": 361,
    "name": "Bergstaðir",
    "type": "sk",
    "owner": "Veðurstofa Íslands",
    "lat": 65.7029800415,
    "lon": -19.61302948,
    "ele": 43,
    "start": 1978,
    "ending": 2018
  },
  {
    "station": 404,
    "name": "Grímsey",
    "type": "sk",
    "owner": "Veðurstofa Íslands",
    "lat": 66.5406265259,
    "lon": -18.0145206451,
    "ele": 15,
    "start": 1874,
    "ending": 2000
  },
  {
    "station": 449,
    "name": "Sandbúðir",
    "type": "sk",
    "owner": "Veðurstofa Íslands",
    "lat": 64.9329986572,
    "lon": -17.9829998016,
    "ele": 821,
    "start": 1973,
    "ending": 1978
  },
  {
    "station": 479,
    "name": "Mánárbakki",
    "type": "sk",
    "owner": "Veðurstofa Íslands",
    "lat": 66.1994781494,
    "lon": -17.1031799316,
    "ele": 17,
    "start": 1956,
    "ending": 2016
  },
  {
    "station": 495,
    "name": "Grímsstaðir",
    "type": "sk",
    "owner": "Veðurstofa Íslands",
    "lat": 65.6423187256,
    "lon": -16.1208190918,
    "ele": 384,
    "start": 1907,
    "ending": null
  },
  {
    "station": 505,
    "name": "Raufarhöfn",
    "type": "sk",
    "owner": "Veðurstofa Íslands",
    "lat": 66.4513473511,
    "lon": -15.9486198425,
    "ele": 6.4000000954,
    "start": 1920,
    "ending": 2009
  },
  {
    "station": 508,
    "name": "Sauðanes",
    "type": "sk",
    "owner": "Veðurstofa Íslands",
    "lat": 66.247428894,
    "lon": -15.2614803314,
    "ele": 20.5,
    "start": 1980,
    "ending": 2004
  },
  {
    "station": 510,
    "name": "Skoruvík",
    "type": "sk",
    "owner": "Veðurstofa Íslands",
    "lat": 66.3499984741,
    "lon": -14.7670001984,
    "ele": 13,
    "start": 1944,
    "ending": 1977
  },
  {
    "station": 521,
    "name": "Strandhöfn",
    "type": "sk",
    "owner": "Veðurstofa Íslands",
    "lat": 65.9061203003,
    "lon": -14.6502504349,
    "ele": 23,
    "start": 1980,
    "ending": 2005
  },
  {
    "station": 525,
    "name": "Vopnafjörður",
    "type": "sk",
    "owner": "Veðurstofa Íslands",
    "lat": 65.75,
    "lon": -14.8330001831,
    "ele": 21,
    "start": 1964,
    "ending": 1994
  },
  {
    "station": 530,
    "name": "Hof í Vopnafirði",
    "type": "sk",
    "owner": "Veðurstofa Íslands",
    "lat": 65.6500015259,
    "lon": -15.0170001984,
    "ele": 50,
    "start": 1946,
    "ending": 1966
  },
  {
    "station": 533,
    "name": "Fagridalur",
    "type": "sk",
    "owner": "Veðurstofa Íslands",
    "lat": 65.7829971313,
    "lon": -14.4499998093,
    "ele": 39,
    "start": 1925,
    "ending": 1964
  },
  {
    "station": 570,
    "name": "Egilsstaðir",
    "type": "sk",
    "owner": "Veðurstofa Íslands",
    "lat": 65.2691421509,
    "lon": -14.3873701096,
    "ele": 37,
    "start": 1943,
    "ending": 1998
  },
  {
    "station": 676,
    "name": "Djúpivogur",
    "type": "sk",
    "owner": "Veðurstofa Íslands",
    "lat": 64.65625,
    "lon": -14.2882003784,
    "ele": 25,
    "start": 1944,
    "ending": 1968
  },
  {
    "station": 706,
    "name": "Hjarðarnes",
    "type": "sk",
    "owner": "Veðurstofa Íslands",
    "lat": 64.2829971313,
    "lon": -15.2170000076,
    "ele": 9,
    "start": 1985,
    "ending": 1992
  },
  {
    "station": 707,
    "name": "Akurnes",
    "type": "sk",
    "owner": "Veðurstofa Íslands",
    "lat": 64.3100814819,
    "lon": -15.2209196091,
    "ele": 17,
    "start": 1992,
    "ending": 2006
  },
  {
    "station": 745,
    "name": "Fagurhólsmýri",
    "type": "sk",
    "owner": "Veðurstofa Íslands",
    "lat": 63.8774490356,
    "lon": -16.6471691132,
    "ele": 38.2999992371,
    "start": 1903,
    "ending": 2008
  },
  {
    "station": 772,
    "name": "Kirkjubæjarklaustur",
    "type": "sk",
    "owner": "Veðurstofa Íslands",
    "lat": 63.7894706726,
    "lon": -18.0542697906,
    "ele": 29.5,
    "start": 1926,
    "ending": 2013
  },
  {
    "station": 790,
    "name": "Mýrar í Álftaveri",
    "type": "sk",
    "owner": "Veðurstofa Íslands",
    "lat": 63.5,
    "lon": -18.3330001831,
    "ele": 20,
    "start": 1959,
    "ending": 1986
  },
  {
    "station": 798,
    "name": "Vík í Mýrdal",
    "type": "sk",
    "owner": "Veðurstofa Íslands",
    "lat": 63.4201812744,
    "lon": -19.0097808838,
    "ele": 15,
    "start": 1925,
    "ending": 2014
  },
  {
    "station": 802,
    "name": "Vatnsskarðshólar",
    "type": "sk",
    "owner": "Veðurstofa Íslands",
    "lat": 63.4235992432,
    "lon": -19.1830291748,
    "ele": 20,
    "start": 1978,
    "ending": null
  },
  {
    "station": 855,
    "name": "Hella",
    "type": "sk",
    "owner": "Veðurstofa Íslands",
    "lat": 63.836101532,
    "lon": -20.3930702209,
    "ele": 20,
    "start": 1957,
    "ending": 2005
  },
  {
    "station": 892,
    "name": "Hveravellir",
    "type": "sk",
    "owner": "Veðurstofa Íslands",
    "lat": 64.8666763306,
    "lon": -19.5620498657,
    "ele": 641,
    "start": 1964,
    "ending": 2004
  },
  {
    "station": 923,
    "name": "Eyrarbakki",
    "type": "sk",
    "owner": "Veðurstofa Íslands",
    "lat": 63.8645782471,
    "lon": -21.1560192108,
    "ele": 5,
    "start": 1923,
    "ending": 2017
  },
  {
    "station": 945,
    "name": "Þingvellir",
    "type": "sk",
    "owner": "Veðurstofa Íslands",
    "lat": 64.25,
    "lon": -21.1170005798,
    "ele": 113,
    "start": 1934,
    "ending": 1982
  },
  {
    "station": 949,
    "name": "Heiðarbær",
    "type": "sk",
    "owner": "Veðurstofa Íslands",
    "lat": 64.1999969482,
    "lon": -21.2329998016,
    "ele": 125,
    "start": 1965,
    "ending": 1991
  },
  {
    "station": 985,
    "name": "Reykjanes",
    "type": "sk",
    "owner": "Veðurstofa Íslands",
    "lat": 63.8170013428,
    "lon": -22.716999054,
    "ele": 20,
    "start": 1927,
    "ending": 1998
  },
  {
    "station": 990,
    "name": "Keflavíkurflugvöllur",
    "type": "sk",
    "owner": "Veðurstofa Íslands",
    "lat": 63.9802398682,
    "lon": -22.5952606201,
    "ele": 51,
    "start": 1952,
    "ending": null
  },
  {
    "station": 1350,
    "name": "Keflavíkurflugvöllur",
    "type": "sj",
    "owner": "Veðurstofa Íslands",
    "lat": 63.9828987122,
    "lon": -22.6005191803,
    "ele": 50.9000015259,
    "start": 2008,
    "ending": null
  },
  {
    "station": 1361,
    "name": "Grindavík",
    "type": "sj",
    "owner": "Veðurstofa Íslands",
    "lat": 63.8437805176,
    "lon": -22.417049408,
    "ele": 9.3000001907,
    "start": 2008,
    "ending": null
  },
  {
    "station": 1362,
    "name": "Grindavík",
    "type": "sj",
    "owner": "Grindavíkurhöfn",
    "lat": 63.8392982483,
    "lon": -22.4274997711,
    "ele": 4,
    "start": 1995,
    "ending": 2008
  },
  {
    "station": 1368,
    "name": "Afstapahraun",
    "type": "sj",
    "owner": "Veðurstofa Íslands",
    "lat": 63.9908218384,
    "lon": -22.1714000702,
    "ele": 47,
    "start": 2000,
    "ending": 2008
  },
  {
    "station": 1370,
    "name": "Hvassahraun",
    "type": "sj",
    "owner": "Veðurstofa Íslands",
    "lat": 64.0196762085,
    "lon": -22.0918807983,
    "ele": 41,
    "start": 2020,
    "ending": null
  },
  {
    "station": 1391,
    "name": "Þorlákshöfn",
    "type": "sj",
    "owner": "Þorlákshöfn",
    "lat": 63.8606987,
    "lon": -21.3736991882,
    "ele": 5,
    "start": 1995,
    "ending": 2008
  },
  {
    "station": 1395,
    "name": "Eyrarbakki",
    "type": "sj",
    "owner": "Veðurstofa Íslands",
    "lat": 63.8692016602,
    "lon": -21.1601791382,
    "ele": 3,
    "start": 2005,
    "ending": null
  },
  {
    "station": 1453,
    "name": "Garðskagaviti",
    "type": "sj",
    "owner": "Siglingastofnun, Vegagerðin",
    "lat": 64.0817184448,
    "lon": -22.6893196106,
    "ele": 4,
    "start": 1995,
    "ending": null
  },
  {
    "station": 1469,
    "name": "Reykjavík Hljómskálagarður",
    "type": "sj",
    "owner": "Veðurstofa Íslands",
    "lat": 64.1410522461,
    "lon": -21.9436302185,
    "ele": 4.5,
    "start": 2022,
    "ending": null
  },
  {
    "station": 1470,
    "name": "Reykjavík",
    "type": "sj",
    "owner": "Veðurstofa Íslands",
    "lat": 64.1288375854,
    "lon": -21.9082202911,
    "ele": 60.2000007629,
    "start": 2021,
    "ending": null
  },
  {
    "station": 1471,
    "name": "Seltjarnarnes Suðurnes",
    "type": "sj",
    "owner": "Veðurstofa Íslands",
    "lat": 64.154510498,
    "lon": -22.0325107574,
    "ele": 4.5,
    "start": 2019,
    "ending": null
  },
  {
    "station": 1472,
    "name": "Kópavogur Fossvogsdalur",
    "type": "sj",
    "owner": "Veðurstofa Íslands",
    "lat": 64.1163482666,
    "lon": -21.8616695404,
    "ele": 19,
    "start": 2021,
    "ending": null
  },
  {
    "station": 1473,
    "name": "Straumsvík",
    "type": "sj",
    "owner": "Veðurstofa Íslands",
    "lat": 64.043800354,
    "lon": -22.0404491425,
    "ele": 7,
    "start": 2001,
    "ending": null
  },
  {
    "station": 1474,
    "name": "Garðabær Urriðaholt",
    "type": "sj",
    "owner": "Veðurstofa Íslands",
    "lat": 64.0711669922,
    "lon": -21.9106693268,
    "ele": 37,
    "start": 2019,
    "ending": null
  },
  {
    "station": 1475,
    "name": "Reykjavík - Bústaðavegur",
    "type": "sj",
    "owner": "Veðurstofa Íslands",
    "lat": 64.1275482178,
    "lon": -21.9020004272,
    "ele": 52,
    "start": 1993,
    "ending": null
  },
  {
    "station": 1477,
    "name": "Reykjavíkurflugvöllur",
    "type": "sj",
    "owner": "Reykjavíkurflugvöllur, Veðurstofa Íslands",
    "lat": 64.1284484863,
    "lon": -21.940700531,
    "ele": 12,
    "start": 2001,
    "ending": null
  },
  {
    "station": 1478,
    "name": "Reykjavík Geirsnef",
    "type": "sj",
    "owner": "Veðurstofa Íslands",
    "lat": 64.1281814575,
    "lon": -21.8409004211,
    "ele": 4,
    "start": 2019,
    "ending": null
  },
  {
    "station": 1479,
    "name": "Reykjavík Korpa",
    "type": "sj",
    "owner": "Veðurstofa Íslands",
    "lat": 64.1505279541,
    "lon": -21.7510509491,
    "ele": 35,
    "start": 1994,
    "ending": null
  },
  {
    "station": 1480,
    "name": "Reykjavík Geldinganes",
    "type": "sj",
    "owner": "Veðurstofa Íslands",
    "lat": 64.1677780151,
    "lon": -21.8038005829,
    "ele": 35,
    "start": 2004,
    "ending": null
  },
  {
    "station": 1481,
    "name": "Hólmsheiði",
    "type": "sj",
    "owner": "Veðurstofa Íslands",
    "lat": 64.1084976196,
    "lon": -21.6863708496,
    "ele": 130,
    "start": 2006,
    "ending": null
  },
  {
    "station": 1482,
    "name": "Reykjavík Víðidalur",
    "type": "sj",
    "owner": "Veðurstofa Íslands",
    "lat": 64.1034698486,
    "lon": -21.7972507477,
    "ele": 73.0999984741,
    "start": 2018,
    "ending": null
  },
  {
    "station": 1483,
    "name": "Miðdalsheiði",
    "type": "sj",
    "owner": "Veðurstofa Íslands",
    "lat": 64.1044464111,
    "lon": -21.5447998047,
    "ele": 240,
    "start": 2001,
    "ending": 2011
  },
  {
    "station": 1485,
    "name": "Bláfjöll úrkomustöð",
    "type": "sj",
    "owner": "Veðurstofa Íslands",
    "lat": 63.9799804688,
    "lon": -21.6556301117,
    "ele": 500,
    "start": 1997,
    "ending": null
  },
  {
    "station": 1486,
    "name": "Bláfjöll",
    "type": "sj",
    "owner": "Veðurstofa Íslands",
    "lat": 63.96900177,
    "lon": -21.6660995483,
    "ele": 530,
    "start": 1997,
    "ending": null
  },
  {
    "station": 1487,
    "name": "Bláfjallaskáli",
    "type": "sj",
    "owner": "Veðurstofa Íslands",
    "lat": 63.9831008911,
    "lon": -21.6496505737,
    "ele": 530,
    "start": 2001,
    "ending": null
  },
  {
    "station": 1490,
    "name": "Hellisskarð",
    "type": "sj",
    "owner": "Veðurstofa Íslands",
    "lat": 64.0333328247,
    "lon": -21.3665294647,
    "ele": 380,
    "start": 2001,
    "ending": null
  },
  {
    "station": 1493,
    "name": "Ölkelduháls",
    "type": "sj",
    "owner": "Veðurstofa Íslands",
    "lat": 64.0552825928,
    "lon": -21.2531700134,
    "ele": 360,
    "start": 2001,
    "ending": null
  },
  {
    "station": 1496,
    "name": "Skarðsmýrarfjall",
    "type": "sj",
    "owner": "Veðurstofa Íslands",
    "lat": 64.056678772,
    "lon": -21.3469295502,
    "ele": 597,
    "start": 2006,
    "ending": null
  },
  {
    "station": 1570,
    "name": "Akranes",
    "type": "sj",
    "owner": "Akraneshöfn",
    "lat": 64.3170013428,
    "lon": -22.0830001831,
    "ele": 5,
    "start": 1997,
    "ending": 2007
  },
  {
    "station": 1578,
    "name": "Skrauthólar",
    "type": "sj",
    "owner": "Veðurstofa Íslands",
    "lat": 64.2318191528,
    "lon": -21.8046302795,
    "ele": 20,
    "start": 2001,
    "ending": null
  },
  {
    "station": 1590,
    "name": "Skálafell",
    "type": "sj",
    "owner": "Veðurstofa Íslands",
    "lat": 64.2404785156,
    "lon": -21.463300705,
    "ele": 771,
    "start": 1995,
    "ending": null
  },
  {
    "station": 1596,
    "name": "Þingvellir",
    "type": "sj",
    "owner": "Veðurstofa Íslands",
    "lat": 64.2807006836,
    "lon": -21.0875301361,
    "ele": 110,
    "start": 1996,
    "ending": null
  },
  {
    "station": 1672,
    "name": "Ás í Melasveit",
    "type": "sj",
    "owner": "Veðurstofa Íslands",
    "lat": 64.3960723877,
    "lon": -22.008020401,
    "ele": 40,
    "start": 2001,
    "ending": 2006
  },
  {
    "station": 1673,
    "name": "Hafnarmelar",
    "type": "sj",
    "owner": "Veðurstofa Íslands",
    "lat": 64.4647293091,
    "lon": -21.962770462,
    "ele": 20,
    "start": 1998,
    "ending": 2022
  },
  {
    "station": 1679,
    "name": "Skarðsheiði Miðfitjahóll",
    "type": "sj",
    "owner": "Landsnet",
    "lat": 64.4901809692,
    "lon": -21.7621307373,
    "ele": 471.299987793,
    "start": 2009,
    "ending": null
  },
  {
    "station": 1685,
    "name": "Þyrill",
    "type": "sj",
    "owner": "Veðurstofa Íslands",
    "lat": 64.3877334595,
    "lon": -21.4168796539,
    "ele": 61.5,
    "start": 2003,
    "ending": null
  },
  {
    "station": 1689,
    "name": "Botnsheiði",
    "type": "sj",
    "owner": "Landsnet",
    "lat": 64.4529495239,
    "lon": -21.4034194946,
    "ele": 500.5,
    "start": 2001,
    "ending": 2024
  },
  {
    "station": 1777,
    "name": "Hvanneyri",
    "type": "sj",
    "owner": "Veðurstofa Íslands",
    "lat": 64.5615997314,
    "lon": -21.7745990753,
    "ele": 11,
    "start": 2022,
    "ending": null
  },
  {
    "station": 1779,
    "name": "Hvanneyri skóli",
    "type": "sj",
    "owner": "Veðurstofa Íslands",
    "lat": 64.5622024536,
    "lon": -21.7649307251,
    "ele": 12.3999996185,
    "start": 1997,
    "ending": 2025
  },
  {
    "station": 1781,
    "name": "Stafholtsey",
    "type": "sj",
    "owner": "Veðurstofa Íslands",
    "lat": 64.6430206299,
    "lon": -21.5893001556,
    "ele": 14,
    "start": 2018,
    "ending": null
  },
  {
    "station": 1868,
    "name": "Fíflholt á Mýrum",
    "type": "sj",
    "owner": "Veðurstofa Íslands",
    "lat": 64.6943206787,
    "lon": -22.1473293304,
    "ele": 55.7000007629,
    "start": 2006,
    "ending": null
  },
  {
    "station": 1881,
    "name": "Litla-Skarð",
    "type": "sj",
    "owner": "Veðurstofa Íslands",
    "lat": 64.7267990112,
    "lon": -21.6296806335,
    "ele": 115,
    "start": 2000,
    "ending": 2022
  },
  {
    "station": 1919,
    "name": "Gufuskálar",
    "type": "sj",
    "owner": ", Veðurstofa Íslands",
    "lat": 64.9041366577,
    "lon": -23.931640625,
    "ele": 7,
    "start": 1994,
    "ending": null
  },
  {
    "station": 1924,
    "name": "Ólafsvík",
    "type": "sj",
    "owner": "Veðurstofa Íslands - Ofanflóð",
    "lat": 64.8956832886,
    "lon": -23.7162399292,
    "ele": 19,
    "start": 2000,
    "ending": null
  },
  {
    "station": 1925,
    "name": "Ólafsvíkurhöfn",
    "type": "sj",
    "owner": "Ólafsvíkurhöfn",
    "lat": 64.9000015259,
    "lon": -23.716999054,
    "ele": 4.6999998093,
    "start": 1998,
    "ending": 2008
  },
  {
    "station": 1936,
    "name": "Bláfeldur",
    "type": "sj",
    "owner": "Veðurstofa Íslands",
    "lat": 64.8393325806,
    "lon": -23.301700592,
    "ele": 13.1000003815,
    "start": 2003,
    "ending": null
  },
  {
    "station": 1938,
    "name": "Grundarfjörður",
    "type": "sj",
    "owner": "Veðurstofa Íslands",
    "lat": 64.9213027954,
    "lon": -23.2512702942,
    "ele": 5.6999998093,
    "start": 2003,
    "ending": null
  },
  {
    "station": 2050,
    "name": "Stykkishólmur",
    "type": "sj",
    "owner": "Veðurstofa Íslands",
    "lat": 65.0717010498,
    "lon": -22.7323703766,
    "ele": 12.3999996185,
    "start": 2002,
    "ending": null
  },
  {
    "station": 2175,
    "name": "Ásgarður",
    "type": "sj",
    "owner": "Veðurstofa Íslands",
    "lat": 65.2296981812,
    "lon": -21.7542705536,
    "ele": 47.9000015259,
    "start": 2003,
    "ending": null
  },
  {
    "station": 2197,
    "name": "Reykir í Hrútafirði",
    "type": "sj",
    "owner": "Veðurstofa Íslands",
    "lat": 65.2542800903,
    "lon": -21.0977802277,
    "ele": 9.8000001907,
    "start": 2003,
    "ending": null
  },
  {
    "station": 2266,
    "name": "Reykhólar",
    "type": "sj",
    "owner": "Veðurstofa Íslands - Ofanflóð",
    "lat": 65.4376525879,
    "lon": -22.205619812,
    "ele": 6.4000000954,
    "start": 2004,
    "ending": null
  },
  {
    "station": 2304,
    "name": "Bjargtangar",
    "type": "sj",
    "owner": "Siglingastofnun, Vegagerðin",
    "lat": 65.5028991699,
    "lon": -24.5311698914,
    "ele": 35,
    "start": 1994,
    "ending": null
  },
  {
    "station": 2315,
    "name": "Lambavatn",
    "type": "sj",
    "owner": "Veðurstofa Íslands",
    "lat": 65.4923782349,
    "lon": -24.0925197601,
    "ele": 4,
    "start": 2006,
    "ending": null
  },
  {
    "station": 2318,
    "name": "Patrekshöfn",
    "type": "sj",
    "owner": "Patreksfjarðarhöfn",
    "lat": 65.5999984741,
    "lon": -24,
    "ele": 4,
    "start": 1995,
    "ending": 2007
  },
  {
    "station": 2319,
    "name": "Patreksfjörður",
    "type": "sj",
    "owner": ", Veðurstofa Íslands - Ofanflóð",
    "lat": 65.5950698853,
    "lon": -23.9748306274,
    "ele": 43,
    "start": 1996,
    "ending": null
  },
  {
    "station": 2320,
    "name": "Patreksfjörður - Brellur",
    "type": "sj",
    "owner": "Veðurstofa Íslands - Ofanflóð",
    "lat": 65.6047515869,
    "lon": -23.9903202057,
    "ele": 350,
    "start": 2014,
    "ending": null
  },
  {
    "station": 2323,
    "name": "Tálknafjörður",
    "type": "sj",
    "owner": "Veðurstofa Íslands - Ofanflóð",
    "lat": 65.6276016235,
    "lon": -23.8302307129,
    "ele": 8.5,
    "start": 2008,
    "ending": null
  },
  {
    "station": 2370,
    "name": "Arnkatla",
    "type": "sj",
    "owner": "Orkubú Vestfjarða",
    "lat": 65.5528488159,
    "lon": -21.8257198334,
    "ele": 377,
    "start": 2013,
    "ending": 2022
  },
  {
    "station": 2390,
    "name": "Ennishöfði",
    "type": "sj",
    "owner": "Orkubú Vestfjarða",
    "lat": 65.5781784058,
    "lon": -21.3221302032,
    "ele": 282,
    "start": 2015,
    "ending": 2022
  },
  {
    "station": 2428,
    "name": "Bíldudalur",
    "type": "sj",
    "owner": ", Veðurstofa Íslands - Ofanflóð",
    "lat": 65.6794204712,
    "lon": -23.6121692657,
    "ele": 16,
    "start": 1998,
    "ending": null
  },
  {
    "station": 2480,
    "name": "Bjarnarfjarðarháls",
    "type": "sj",
    "owner": "Orkubú Vestfjarða",
    "lat": 65.7283935547,
    "lon": -21.5717506409,
    "ele": 238.5,
    "start": 2013,
    "ending": 2024
  },
  {
    "station": 2481,
    "name": "Hólmavík",
    "type": "sj",
    "owner": "Veðurstofa Íslands",
    "lat": 65.6873168945,
    "lon": -21.6812992096,
    "ele": 10,
    "start": 2007,
    "ending": null
  },
  {
    "station": 2530,
    "name": "Hólar í Dýrafirði",
    "type": "sj",
    "owner": "Veðurstofa Íslands",
    "lat": 65.8686065674,
    "lon": -23.5577793121,
    "ele": 16,
    "start": 2020,
    "ending": null
  },
  {
    "station": 2630,
    "name": "Suðureyri",
    "type": "sj",
    "owner": "Veðurstofa Íslands - Ofanflóð",
    "lat": 66.1250762939,
    "lon": -23.5077400208,
    "ele": 2,
    "start": 2021,
    "ending": null
  },
  {
    "station": 2631,
    "name": "Flateyri",
    "type": "sj",
    "owner": ", Veðurstofa Íslands - Ofanflóð",
    "lat": 66.0498580933,
    "lon": -23.5100593567,
    "ele": 3,
    "start": 1997,
    "ending": null
  },
  {
    "station": 2636,
    "name": "Þverfjall",
    "type": "sj",
    "owner": "Veðurstofa Íslands - Ofanflóð",
    "lat": 66.0444335938,
    "lon": -23.3074493408,
    "ele": 741,
    "start": 1990,
    "ending": null
  },
  {
    "station": 2640,
    "name": "Seljalandsdalur",
    "type": "sj",
    "owner": "Veðurstofa Íslands - Ofanflóð",
    "lat": 66.0759506226,
    "lon": -23.1986694336,
    "ele": 550,
    "start": 1995,
    "ending": null
  },
  {
    "station": 2641,
    "name": "Seljalandsdalur - skíðaskáli",
    "type": "sj",
    "owner": "Veðurstofa Íslands - Ofanflóð",
    "lat": 66.0666885376,
    "lon": -23.2141990662,
    "ele": 283,
    "start": 2005,
    "ending": null
  },
  {
    "station": 2642,
    "name": "Ísafjörður - vindur",
    "type": "sj",
    "owner": ", Veðurstofa Íslands - Ofanflóð",
    "lat": 66.0596313477,
    "lon": -23.1699295044,
    "ele": 2.2000000477,
    "start": 1998,
    "ending": null
  },
  {
    "station": 2643,
    "name": "Hnífsdalur",
    "type": "sj",
    "owner": "Flugmálastjórn Íslands",
    "lat": 66.1065979004,
    "lon": -23.1091003418,
    "ele": 10,
    "start": 2018,
    "ending": 2022
  },
  {
    "station": 2646,
    "name": "Súðavík",
    "type": "sj",
    "owner": ", Veðurstofa Íslands - Ofanflóð",
    "lat": 66.0426025391,
    "lon": -22.9860496521,
    "ele": 10.8999996185,
    "start": 1995,
    "ending": null
  },
  {
    "station": 2655,
    "name": "Æðey",
    "type": "sj",
    "owner": "Veðurstofa Íslands",
    "lat": 66.1006469727,
    "lon": -22.6593704224,
    "ele": 21,
    "start": 2012,
    "ending": null
  },
  {
    "station": 2691,
    "name": "Litla-Ávík",
    "type": "sj",
    "owner": "Veðurstofa Íslands",
    "lat": 66.0211105347,
    "lon": -21.4248409271,
    "ele": 8.1000003815,
    "start": 2022,
    "ending": null
  },
  {
    "station": 2692,
    "name": "Gjögurflugvöllur",
    "type": "sj",
    "owner": "Veðurstofa Íslands",
    "lat": 65.9950790405,
    "lon": -21.3303699493,
    "ele": 28.1000003815,
    "start": 1994,
    "ending": null
  },
  {
    "station": 2693,
    "name": "Gjögur",
    "type": "sj",
    "owner": "Veðurstofa Íslands - Ofanflóð",
    "lat": 65.9967727661,
    "lon": -21.3278007507,
    "ele": 25.6000003815,
    "start": 2016,
    "ending": null
  },
  {
    "station": 2738,
    "name": "Bolungarvík",
    "type": "sj",
    "owner": ", Veðurstofa Íslands - Ofanflóð",
    "lat": 66.1610183716,
    "lon": -23.2538299561,
    "ele": 27,
    "start": 1999,
    "ending": null
  },
  {
    "station": 2841,
    "name": "Sléttunes Jökulfjörðum",
    "type": "sj",
    "owner": "Veðurstofa Íslands",
    "lat": 66.2962036133,
    "lon": -22.9640102386,
    "ele": 0.5,
    "start": 2013,
    "ending": 2023
  },
  {
    "station": 2862,
    "name": "Hornbjargsviti",
    "type": "sj",
    "owner": "Siglingastofnun, Vegagerðin",
    "lat": 66.4106521606,
    "lon": -22.378900528,
    "ele": 22,
    "start": 1995,
    "ending": null
  },
  {
    "station": 2941,
    "name": "Straumnesviti",
    "type": "sj",
    "owner": "Siglingastofnun, Vegagerðin",
    "lat": 66.430519104,
    "lon": -23.1345291138,
    "ele": 7,
    "start": 1995,
    "ending": null
  },
  {
    "station": 3007,
    "name": "Austurárdalsháls",
    "type": "sj",
    "owner": "Landsnet",
    "lat": 65.1230010986,
    "lon": -20.6961193085,
    "ele": 383,
    "start": 2009,
    "ending": null
  },
  {
    "station": 3054,
    "name": "Sáta",
    "type": "sj",
    "owner": "Veðurstofa Íslands",
    "lat": 65.0627822876,
    "lon": -18.8383293152,
    "ele": 785,
    "start": 1992,
    "ending": null
  },
  {
    "station": 3103,
    "name": "Haugur",
    "type": "sj",
    "owner": "Veðurstofa Íslands",
    "lat": 65.1838989258,
    "lon": -20.7850494385,
    "ele": 118.3000030518,
    "start": 2003,
    "ending": null
  },
  {
    "station": 3122,
    "name": "Grímstunguheiði",
    "type": "sj",
    "owner": "Landsnet",
    "lat": 65.2224502563,
    "lon": -20.056230545,
    "ele": 509,
    "start": 2009,
    "ending": 2016
  },
  {
    "station": 3223,
    "name": "Brúsastaðir",
    "type": "sj",
    "owner": "Veðurstofa Íslands",
    "lat": 65.3783721924,
    "lon": -20.2472991943,
    "ele": 20,
    "start": 2003,
    "ending": null
  },
  {
    "station": 3225,
    "name": "Kolka",
    "type": "sj",
    "owner": "Landsvirkjun",
    "lat": 65.2306976318,
    "lon": -19.7176990509,
    "ele": 504,
    "start": 1993,
    "ending": null
  },
  {
    "station": 3242,
    "name": "Nautabú",
    "type": "sj",
    "owner": "Veðurstofa Íslands",
    "lat": 65.4582519531,
    "lon": -19.3691196442,
    "ele": 111.5,
    "start": 2004,
    "ending": null
  },
  {
    "station": 3292,
    "name": "Svartárkot",
    "type": "sj",
    "owner": "Landsnet",
    "lat": 65.3418731689,
    "lon": -17.2465000153,
    "ele": 403.3999938965,
    "start": 2003,
    "ending": null
  },
  {
    "station": 3317,
    "name": "Blönduós",
    "type": "sj",
    "owner": "Veðurstofa Íslands",
    "lat": 65.6579971313,
    "lon": -20.2925205231,
    "ele": 8,
    "start": 2003,
    "ending": null
  },
  {
    "station": 3371,
    "name": "Torfur",
    "type": "sj",
    "owner": "Veðurstofa Íslands",
    "lat": 65.5009689331,
    "lon": -18.1616001129,
    "ele": 25.7999992371,
    "start": 2006,
    "ending": null
  },
  {
    "station": 3380,
    "name": "Reykir í Fnjóskadal",
    "type": "sj",
    "owner": "Veðurstofa Íslands",
    "lat": 65.5851211548,
    "lon": -17.7666702271,
    "ele": 211.3999938965,
    "start": 2000,
    "ending": null
  },
  {
    "station": 3433,
    "name": "Sauðárkrókur flugvöllur",
    "type": "sj",
    "owner": "Veðurstofa Íslands",
    "lat": 65.7259292603,
    "lon": -19.5736808777,
    "ele": 0.5,
    "start": 2007,
    "ending": null
  },
  {
    "station": 3463,
    "name": "Möðruvellir",
    "type": "sj",
    "owner": "Veðurstofa Íslands",
    "lat": 65.770652771,
    "lon": -18.251329422,
    "ele": 15,
    "start": 1996,
    "ending": null
  },
  {
    "station": 3471,
    "name": "Akureyri - Krossanesbraut",
    "type": "sj",
    "owner": "Veðurstofa Íslands",
    "lat": 65.6961212158,
    "lon": -18.1113204956,
    "ele": 30,
    "start": 2005,
    "ending": null
  },
  {
    "station": 3474,
    "name": "Vaðlaheiði",
    "type": "sj",
    "owner": "Veðurstofa Íslands - Ofanflóð",
    "lat": 65.7483062744,
    "lon": -18.0021095276,
    "ele": 580,
    "start": 1999,
    "ending": null
  },
  {
    "station": 3477,
    "name": "Végeirsstaðir í Fnjóskadal",
    "type": "sj",
    "owner": "Veðurstofa Íslands",
    "lat": 65.8169708252,
    "lon": -17.8857002258,
    "ele": 130.3000030518,
    "start": 2001,
    "ending": null
  },
  {
    "station": 3490,
    "name": "Gæsafjöll",
    "type": "sj",
    "owner": "Landsnet",
    "lat": 65.7873306274,
    "lon": -17.0034809113,
    "ele": 390,
    "start": 2010,
    "ending": 2021
  },
  {
    "station": 3585,
    "name": "Björg í Kinn",
    "type": "sj",
    "owner": ", Veðurstofa Íslands - Ofanflóð",
    "lat": 65.9453964233,
    "lon": -17.5918502808,
    "ele": 4,
    "start": 2022,
    "ending": null
  },
  {
    "station": 3591,
    "name": "Staðarhóll",
    "type": "sj",
    "owner": "Veðurstofa Íslands",
    "lat": 65.8209762573,
    "lon": -17.3445796967,
    "ele": 40,
    "start": 2012,
    "ending": null
  },
  {
    "station": 3595,
    "name": "Sóleyjarflatamelar",
    "type": "sj",
    "owner": "Landsnet",
    "lat": 65.8914031982,
    "lon": -17.2267799377,
    "ele": 350,
    "start": 2006,
    "ending": 2015
  },
  {
    "station": 3596,
    "name": "Rauðhálsar",
    "type": "sj",
    "owner": "Landsnet",
    "lat": 65.8560028076,
    "lon": -17.2015304565,
    "ele": 390,
    "start": 2015,
    "ending": 2022
  },
  {
    "station": 3658,
    "name": "Ólafsfjörður",
    "type": "sj",
    "owner": ", Veðurstofa Íslands - Ofanflóð",
    "lat": 66.0738525391,
    "lon": -18.6655807495,
    "ele": 5,
    "start": 1997,
    "ending": null
  },
  {
    "station": 3662,
    "name": "Dalvík",
    "type": "sj",
    "owner": "Dalvíkurhöfn",
    "lat": 65.9739532471,
    "lon": -18.5256690979,
    "ele": 4,
    "start": 1995,
    "ending": 2008
  },
  {
    "station": 3691,
    "name": "Húsavíkurhöfn",
    "type": "sj",
    "owner": "Húsavíkurhöfn",
    "lat": 66.0450668335,
    "lon": -17.3541297913,
    "ele": 2.5,
    "start": 1997,
    "ending": 2008
  },
  {
    "station": 3692,
    "name": "Bakkahöfði við Húsavík",
    "type": "sj",
    "owner": "Veðurstofa Íslands",
    "lat": 66.0767974854,
    "lon": -17.3609008789,
    "ele": 14.8999996185,
    "start": 2002,
    "ending": 2010
  },
  {
    "station": 3695,
    "name": "Húsavík Héðinshöfði",
    "type": "sj",
    "owner": "Veðurstofa Íslands",
    "lat": 66.0804290771,
    "lon": -17.3216495514,
    "ele": 30,
    "start": 2007,
    "ending": 2012
  },
  {
    "station": 3696,
    "name": "Húsavík",
    "type": "sj",
    "owner": "Veðurstofa Íslands",
    "lat": 66.0418167114,
    "lon": -17.3280792236,
    "ele": 28.2000007629,
    "start": 2002,
    "ending": null
  },
  {
    "station": 3720,
    "name": "Skagatá",
    "type": "sj",
    "owner": "Siglingastofnun, Vegagerðin",
    "lat": 66.1192169189,
    "lon": -20.0988693237,
    "ele": 9,
    "start": 1996,
    "ending": null
  },
  {
    "station": 3751,
    "name": "Sauðanesviti",
    "type": "sj",
    "owner": "Veðurstofa Íslands",
    "lat": 66.1844406128,
    "lon": -18.9533996582,
    "ele": 35,
    "start": 2020,
    "ending": null
  },
  {
    "station": 3752,
    "name": "Siglufjörður",
    "type": "sj",
    "owner": ", Veðurstofa Íslands - Ofanflóð",
    "lat": 66.1349487305,
    "lon": -18.9189796448,
    "ele": 6,
    "start": 1995,
    "ending": null
  },
  {
    "station": 3754,
    "name": "Siglunes",
    "type": "sj",
    "owner": "Veðurstofa Íslands",
    "lat": 66.1937713623,
    "lon": -18.8430805206,
    "ele": 8,
    "start": 1995,
    "ending": 2021
  },
  {
    "station": 3779,
    "name": "Flatey á Skjálfanda",
    "type": "sj",
    "owner": "Siglingastofnun, Vegagerðin",
    "lat": 66.1631469727,
    "lon": -17.8407802582,
    "ele": 22,
    "start": 2005,
    "ending": null
  },
  {
    "station": 3797,
    "name": "Mánárbakki",
    "type": "sj",
    "owner": ", Veðurstofa Íslands",
    "lat": 66.1994018555,
    "lon": -17.1027507782,
    "ele": 17,
    "start": 2005,
    "ending": null
  },
  {
    "station": 3975,
    "name": "Grímsey",
    "type": "sj",
    "owner": "Veðurstofa Íslands",
    "lat": 66.5329971313,
    "lon": -18.0170001984,
    "ele": 16,
    "start": 1994,
    "ending": 2005
  },
  {
    "station": 3976,
    "name": "Grímsey",
    "type": "sj",
    "owner": "Veðurstofa Íslands",
    "lat": 66.5437774658,
    "lon": -18.0167293549,
    "ele": 19,
    "start": 2005,
    "ending": null
  },
  {
    "station": 4019,
    "name": "Upptyppingar",
    "type": "sj",
    "owner": "Veðurstofa Íslands",
    "lat": 65.0606536865,
    "lon": -16.2103996277,
    "ele": 563,
    "start": 1999,
    "ending": null
  },
  {
    "station": 4060,
    "name": "Hallormsstaður",
    "type": "sj",
    "owner": "Veðurstofa Íslands",
    "lat": 65.0939025879,
    "lon": -14.7448997498,
    "ele": 60,
    "start": 1992,
    "ending": null
  },
  {
    "station": 4180,
    "name": "Seyðisfjörður - Vestdalur",
    "type": "sj",
    "owner": ", Veðurstofa Íslands - Ofanflóð",
    "lat": 65.2813720703,
    "lon": -14.0004196167,
    "ele": 92.4000015259,
    "start": 1995,
    "ending": null
  },
  {
    "station": 4181,
    "name": "Seyðisfjörður - Kálfabotnar",
    "type": "sj",
    "owner": "Veðurstofa Íslands - Ofanflóð",
    "lat": 65.2650680542,
    "lon": -14.0328798294,
    "ele": 400,
    "start": 2005,
    "ending": null
  },
  {
    "station": 4182,
    "name": "Seyðisfjörður",
    "type": "sj",
    "owner": "Veðurstofa Íslands - Ofanflóð",
    "lat": 65.2548675537,
    "lon": -14.0064496994,
    "ele": 37,
    "start": 2014,
    "ending": null
  },
  {
    "station": 4183,
    "name": "Seyðisfjörður - Innri-Botnar",
    "type": "sj",
    "owner": ", Veðurstofa Íslands - Ofanflóð",
    "lat": 65.2595291138,
    "lon": -13.9895000458,
    "ele": 136,
    "start": 2021,
    "ending": null
  },
  {
    "station": 4193,
    "name": "Dalatangi",
    "type": "sj",
    "owner": ", Veðurstofa Íslands",
    "lat": 65.2681503296,
    "lon": -13.5749702454,
    "ele": 10,
    "start": 1994,
    "ending": null
  },
  {
    "station": 4271,
    "name": "Egilsstaðaflugvöllur",
    "type": "sj",
    "owner": "Veðurstofa Íslands",
    "lat": 65.2761764526,
    "lon": -14.4046001434,
    "ele": 23.5,
    "start": 1998,
    "ending": null
  },
  {
    "station": 4275,
    "name": "Gagnheiði",
    "type": "sj",
    "owner": "Veðurstofa Íslands - Ofanflóð",
    "lat": 65.2234725952,
    "lon": -14.2588796616,
    "ele": 949,
    "start": 1993,
    "ending": null
  },
  {
    "station": 4300,
    "name": "Mývatn",
    "type": "sj",
    "owner": "Veðurstofa Íslands",
    "lat": 65.6193313599,
    "lon": -16.9768390656,
    "ele": 282.299987793,
    "start": 1996,
    "ending": null
  },
  {
    "station": 4303,
    "name": "Bjarnarflag",
    "type": "sj",
    "owner": "Landsvirkjun",
    "lat": 65.6297531128,
    "lon": -16.8370704651,
    "ele": 347,
    "start": 2004,
    "ending": 2012
  },
  {
    "station": 4323,
    "name": "Grímsstaðir á Fjöllum",
    "type": "sj",
    "owner": "Veðurstofa Íslands",
    "lat": 65.6421966553,
    "lon": -16.1284198761,
    "ele": 382.299987793,
    "start": 2012,
    "ending": null
  },
  {
    "station": 4380,
    "name": "Bakkagerði",
    "type": "sj",
    "owner": "Veðurstofa Íslands - Ofanflóð",
    "lat": 65.5235214233,
    "lon": -13.8167295456,
    "ele": 28,
    "start": 2017,
    "ending": null
  },
  {
    "station": 4406,
    "name": "Krafla",
    "type": "sj",
    "owner": "Landsvirkjun",
    "lat": 65.6945037842,
    "lon": -16.7748298645,
    "ele": 455,
    "start": 2011,
    "ending": null
  },
  {
    "station": 4455,
    "name": "Skjaldþingsstaðir",
    "type": "sj",
    "owner": "Veðurstofa Íslands",
    "lat": 65.7035522461,
    "lon": -14.8207798004,
    "ele": 34.7999992371,
    "start": 2006,
    "ending": null
  },
  {
    "station": 4472,
    "name": "Bjarnarey",
    "type": "sj",
    "owner": "Siglingastofnun, Vegagerðin",
    "lat": 65.785697937,
    "lon": -14.3081998825,
    "ele": 20,
    "start": 1996,
    "ending": null
  },
  {
    "station": 4500,
    "name": "Þeistareykir",
    "type": "sj",
    "owner": "Landsnet, Landsvirkjun",
    "lat": 65.9110336304,
    "lon": -16.9762306213,
    "ele": 311,
    "start": 2005,
    "ending": null
  },
  {
    "station": 4614,
    "name": "Ásbyrgi",
    "type": "sj",
    "owner": "Veðurstofa Íslands",
    "lat": 66.0299530029,
    "lon": -16.4832992554,
    "ele": 31.5,
    "start": 1998,
    "ending": null
  },
  {
    "station": 4652,
    "name": "Miðfjarðarnes",
    "type": "sj",
    "owner": "Veðurstofa Íslands",
    "lat": 66.0668182373,
    "lon": -15.0799303055,
    "ele": 25,
    "start": 2008,
    "ending": null
  },
  {
    "station": 4828,
    "name": "Raufarhöfn",
    "type": "sj",
    "owner": "Veðurstofa Íslands",
    "lat": 66.4560012817,
    "lon": -15.9526996613,
    "ele": 4,
    "start": 2005,
    "ending": null
  },
  {
    "station": 4830,
    "name": "Möðrudalur",
    "type": "sj",
    "owner": "Veðurstofa Íslands",
    "lat": 65.3753662109,
    "lon": -15.8833303452,
    "ele": 452,
    "start": 2003,
    "ending": null
  },
  {
    "station": 4867,
    "name": "Fontur",
    "type": "sj",
    "owner": "Veðurstofa Íslands",
    "lat": 66.3783493042,
    "lon": -14.5325803757,
    "ele": 43,
    "start": 1994,
    "ending": null
  },
  {
    "station": 4912,
    "name": "Rauðinúpur",
    "type": "sj",
    "owner": "Veðurstofa Íslands",
    "lat": 66.5082015991,
    "lon": -16.544380188,
    "ele": 59.2999992371,
    "start": 1997,
    "ending": null
  },
  {
    "station": 4921,
    "name": "Rif á Melrakkasléttu",
    "type": "sj",
    "owner": "Rannsóknastöðin Rif",
    "lat": 66.5111236572,
    "lon": -16.1439208984,
    "ele": 10,
    "start": 2018,
    "ending": null
  },
  {
    "station": 5210,
    "name": "Ingólfshöfði",
    "type": "sj",
    "owner": "Siglingastofnun, Vegagerðin",
    "lat": 63.8028297424,
    "lon": -16.6508998871,
    "ele": 57.2000007629,
    "start": 2004,
    "ending": null
  },
  {
    "station": 5309,
    "name": "Fagurhólsmýri",
    "type": "sj",
    "owner": "Veðurstofa Íslands",
    "lat": 63.8743286133,
    "lon": -16.6364307404,
    "ele": 9.3000001907,
    "start": 2003,
    "ending": null
  },
  {
    "station": 5316,
    "name": "Kvísker",
    "type": "sj",
    "owner": ", Veðurstofa Íslands",
    "lat": 63.9776802063,
    "lon": -16.4365501404,
    "ele": 30,
    "start": 2008,
    "ending": null
  },
  {
    "station": 5544,
    "name": "Höfn í Hornafirði",
    "type": "sj",
    "owner": "Veðurstofa Íslands",
    "lat": 64.2690811157,
    "lon": -15.21352005,
    "ele": 5,
    "start": 2007,
    "ending": null
  },
  {
    "station": 5548,
    "name": "Akurnes",
    "type": "sj",
    "owner": "Veðurstofa Íslands",
    "lat": 64.3100814819,
    "lon": -15.2209196091,
    "ele": 17,
    "start": 2003,
    "ending": 2007
  },
  {
    "station": 5552,
    "name": "Hvanney",
    "type": "sj",
    "owner": "Hornafjörður",
    "lat": 64.2319030762,
    "lon": -15.2002496719,
    "ele": 4,
    "start": 1995,
    "ending": 2008
  },
  {
    "station": 5777,
    "name": "Papey",
    "type": "sj",
    "owner": "Siglingastofnun, Vegagerðin",
    "lat": 64.5911483765,
    "lon": -14.1746902466,
    "ele": 49,
    "start": 1998,
    "ending": null
  },
  {
    "station": 5825,
    "name": "Brúaröræfi",
    "type": "sj",
    "owner": "Landsvirkjun",
    "lat": 64.8281021118,
    "lon": -16.0896701813,
    "ele": 748.200012207,
    "start": 2006,
    "ending": null
  },
  {
    "station": 5847,
    "name": "Innri Sauðá",
    "type": "sj",
    "owner": "Landsvirkjun",
    "lat": 64.8161087036,
    "lon": -15.3227796555,
    "ele": 750,
    "start": 2014,
    "ending": 2021
  },
  {
    "station": 5860,
    "name": "Líkárvatn",
    "type": "sj",
    "owner": "Orkustofnun",
    "lat": 64.7981185913,
    "lon": -14.7898797989,
    "ele": 590,
    "start": 1999,
    "ending": 2009
  },
  {
    "station": 5872,
    "name": "Teigarhorn",
    "type": "sj",
    "owner": "Veðurstofa Íslands",
    "lat": 64.6756668091,
    "lon": -14.3443803787,
    "ele": 20.7000007629,
    "start": 2001,
    "ending": null
  },
  {
    "station": 5885,
    "name": "Kambanes",
    "type": "sj",
    "owner": "Veðurstofa Íslands",
    "lat": 64.8015136719,
    "lon": -13.8430404663,
    "ele": 29.7999992371,
    "start": 1994,
    "ending": null
  },
  {
    "station": 5932,
    "name": "Brúarjökull B10",
    "type": "sj",
    "owner": "Landsvirkjun",
    "lat": 64.7279968262,
    "lon": -16.1117305756,
    "ele": 845,
    "start": 2005,
    "ending": 2025
  },
  {
    "station": 5933,
    "name": "Kárahnjúkar",
    "type": "sj",
    "owner": "Landsvirkjun",
    "lat": 64.9283676147,
    "lon": -15.7771196365,
    "ele": 639,
    "start": 1998,
    "ending": null
  },
  {
    "station": 5940,
    "name": "Brú á Jökuldal",
    "type": "sj",
    "owner": "Veðurstofa Íslands",
    "lat": 65.1085662842,
    "lon": -15.5297298431,
    "ele": 373,
    "start": 1998,
    "ending": null
  },
  {
    "station": 5943,
    "name": "Eyjabakkar",
    "type": "sj",
    "owner": "Landsvirkjun",
    "lat": 64.8150787354,
    "lon": -15.4234695435,
    "ele": 655.299987793,
    "start": 1997,
    "ending": null
  },
  {
    "station": 5960,
    "name": "Hallormsstaðaháls",
    "type": "sj",
    "owner": "Landsnet",
    "lat": 65.0795288086,
    "lon": -14.6747503281,
    "ele": 573.0999755859,
    "start": 1996,
    "ending": null
  },
  {
    "station": 5965,
    "name": "Þórudalur",
    "type": "sj",
    "owner": "Landsnet",
    "lat": 65.0363693237,
    "lon": -14.571100235,
    "ele": 300,
    "start": 2017,
    "ending": null
  },
  {
    "station": 5968,
    "name": "Brúðardalur",
    "type": "sj",
    "owner": "Landsnet",
    "lat": 64.9957199097,
    "lon": -14.5106296539,
    "ele": 300,
    "start": 2006,
    "ending": 2017
  },
  {
    "station": 5969,
    "name": "Þórdalsheiði",
    "type": "sj",
    "owner": "Landsnet",
    "lat": 65.0009231567,
    "lon": -14.4624795914,
    "ele": 500,
    "start": 2006,
    "ending": 2021
  },
  {
    "station": 5970,
    "name": "Hallsteinsdalsvarp",
    "type": "sj",
    "owner": "Landsnet",
    "lat": 65.0181732178,
    "lon": -14.4534797668,
    "ele": 634,
    "start": 2007,
    "ending": null
  },
  {
    "station": 5975,
    "name": "Kollaleira",
    "type": "sj",
    "owner": "Veðurstofa Íslands",
    "lat": 65.0367507935,
    "lon": -14.2396802902,
    "ele": 44,
    "start": 2000,
    "ending": null
  },
  {
    "station": 5977,
    "name": "Ljósá í Reyðarfirði",
    "type": "sj",
    "owner": "Veðurstofa Íslands",
    "lat": 65.0432510376,
    "lon": -14.1622800827,
    "ele": 281,
    "start": 2000,
    "ending": 2004
  },
  {
    "station": 5981,
    "name": "Eskifjörður",
    "type": "sj",
    "owner": ", Veðurstofa Íslands - Ofanflóð",
    "lat": 65.0763320923,
    "lon": -14.0369501114,
    "ele": 2,
    "start": 1998,
    "ending": null
  },
  {
    "station": 5982,
    "name": "Fáskrúðsfjörður Ljósaland",
    "type": "sj",
    "owner": ", Veðurstofa Íslands - Ofanflóð",
    "lat": 64.9372329712,
    "lon": -14.0406999588,
    "ele": 8,
    "start": 2007,
    "ending": null
  },
  {
    "station": 5988,
    "name": "Vattarnes",
    "type": "sj",
    "owner": "Vattarnes, Veðurstofa Íslands",
    "lat": 64.9370193481,
    "lon": -13.6845998764,
    "ele": 5.3000001907,
    "start": 2000,
    "ending": null
  },
  {
    "station": 5990,
    "name": "Neskaupstaður",
    "type": "sj",
    "owner": ", Veðurstofa Íslands - Ofanflóð",
    "lat": 65.1500930786,
    "lon": -13.6706104279,
    "ele": 43.5,
    "start": 1999,
    "ending": null
  },
  {
    "station": 5992,
    "name": "Neskaupstaður - Drangagil",
    "type": "sj",
    "owner": "Veðurstofa Íslands - Ofanflóð",
    "lat": 65.1620025635,
    "lon": -13.6892995834,
    "ele": 559,
    "start": 2005,
    "ending": null
  },
  {
    "station": 5993,
    "name": "Seley",
    "type": "sj",
    "owner": "Siglingastofnun, Vegagerðin",
    "lat": 64.9775009155,
    "lon": -13.5198001862,
    "ele": 18,
    "start": 1996,
    "ending": null
  },
  {
    "station": 6012,
    "name": "Surtsey",
    "type": "sj",
    "owner": "Veðurstofa Íslands",
    "lat": 63.2993011475,
    "lon": -20.5994701385,
    "ele": 36,
    "start": 2009,
    "ending": null
  },
  {
    "station": 6015,
    "name": "Vestmannaeyjabær",
    "type": "sj",
    "owner": "Veðurstofa Íslands",
    "lat": 63.4358711243,
    "lon": -20.2757797241,
    "ele": 40.4000015259,
    "start": 2002,
    "ending": null
  },
  {
    "station": 6016,
    "name": "Vestmannaeyjar - hraun",
    "type": "sj",
    "owner": "Veðurstofa Íslands",
    "lat": 63.4379692078,
    "lon": -20.2433204651,
    "ele": 70,
    "start": 2002,
    "ending": 2009
  },
  {
    "station": 6017,
    "name": "Stórhöfði",
    "type": "sj",
    "owner": "Veðurstofa Íslands",
    "lat": 63.3995704651,
    "lon": -20.2882499695,
    "ele": 118,
    "start": 1997,
    "ending": null
  },
  {
    "station": 6045,
    "name": "Vatnsskarðshólar",
    "type": "sj",
    "owner": "Veðurstofa Íslands",
    "lat": 63.4239082336,
    "lon": -19.1836795807,
    "ele": 10,
    "start": 2003,
    "ending": null
  },
  {
    "station": 6134,
    "name": "Önundarhorn",
    "type": "sj",
    "owner": "Veðurstofa Íslands",
    "lat": 63.5242004395,
    "lon": -19.6357002258,
    "ele": 12,
    "start": 2010,
    "ending": null
  },
  {
    "station": 6176,
    "name": "Skarðsfjöruviti",
    "type": "sj",
    "owner": "Siglingastofnun, Vegagerðin",
    "lat": 63.5178718567,
    "lon": -17.9785194397,
    "ele": 6,
    "start": 1994,
    "ending": null
  },
  {
    "station": 6208,
    "name": "Þykkvibær",
    "type": "sj",
    "owner": "Veðurstofa Íslands",
    "lat": 63.7477493286,
    "lon": -20.6181507111,
    "ele": 10,
    "start": 1996,
    "ending": null
  },
  {
    "station": 6222,
    "name": "Sámsstaðir",
    "type": "sj",
    "owner": "Veðurstofa Íslands",
    "lat": 63.735370636,
    "lon": -20.1090698242,
    "ele": 90,
    "start": 2000,
    "ending": null
  },
  {
    "station": 6235,
    "name": "Tindfjöll",
    "type": "sj",
    "owner": "Veðurstofa Íslands",
    "lat": 63.775718689,
    "lon": -19.6773204803,
    "ele": 870,
    "start": 2005,
    "ending": 2025
  },
  {
    "station": 6237,
    "name": "Básar á Goðalandi",
    "type": "sj",
    "owner": "Veðurstofa Íslands",
    "lat": 63.6790809631,
    "lon": -19.4813804626,
    "ele": 239,
    "start": 2008,
    "ending": null
  },
  {
    "station": 6272,
    "name": "Kirkjubæjarklaustur - Stjórnarsandur",
    "type": "sj",
    "owner": "Veðurstofa Íslands",
    "lat": 63.7930488586,
    "lon": -18.0119495392,
    "ele": 22,
    "start": 2004,
    "ending": null
  },
  {
    "station": 6300,
    "name": "Selfoss",
    "type": "sj",
    "owner": "Veðurstofa Íslands",
    "lat": 63.9355010986,
    "lon": -20.9706707001,
    "ele": 20,
    "start": 2019,
    "ending": null
  },
  {
    "station": 6310,
    "name": "Kálfhóll",
    "type": "sj",
    "owner": "Veðurstofa Íslands",
    "lat": 63.9627799988,
    "lon": -20.5669307709,
    "ele": 52,
    "start": 2003,
    "ending": null
  },
  {
    "station": 6315,
    "name": "Hella",
    "type": "sj",
    "owner": "Veðurstofa Íslands, Vegagerðin",
    "lat": 63.8256797791,
    "lon": -20.3653793335,
    "ele": 20,
    "start": 2006,
    "ending": null
  },
  {
    "station": 6420,
    "name": "Árnes",
    "type": "sj",
    "owner": "Veðurstofa Íslands",
    "lat": 64.0405273438,
    "lon": -20.2520809174,
    "ele": 87,
    "start": 2003,
    "ending": null
  },
  {
    "station": 6424,
    "name": "Mörk á Landi",
    "type": "sj",
    "owner": "Veðurstofa Íslands",
    "lat": 64.0292510986,
    "lon": -20.0189304352,
    "ele": 125,
    "start": 2008,
    "ending": null
  },
  {
    "station": 6430,
    "name": "Búrfell",
    "type": "sj",
    "owner": "Landsvirkjun",
    "lat": 64.1168212891,
    "lon": -19.7448692322,
    "ele": 249,
    "start": 1993,
    "ending": null
  },
  {
    "station": 6459,
    "name": "Lónakvísl",
    "type": "sj",
    "owner": "Landsvirkjun",
    "lat": 64.0980834961,
    "lon": -18.6140708923,
    "ele": 675,
    "start": 1999,
    "ending": null
  },
  {
    "station": 6472,
    "name": "Laufbali",
    "type": "sj",
    "owner": "Veðurstofa Íslands",
    "lat": 64.0254516602,
    "lon": -18.1195697784,
    "ele": 555.5999755859,
    "start": 1993,
    "ending": null
  },
  {
    "station": 6499,
    "name": "Skaftafell",
    "type": "sj",
    "owner": "Veðurstofa Íslands",
    "lat": 64.0143737793,
    "lon": -16.972120285,
    "ele": 86,
    "start": 1995,
    "ending": null
  },
  {
    "station": 6515,
    "name": "Hjarðarland",
    "type": "sj",
    "owner": ", Veðurstofa Íslands",
    "lat": 64.2508926392,
    "lon": -20.333190918,
    "ele": 88,
    "start": 2004,
    "ending": null
  },
  {
    "station": 6546,
    "name": "Vatnsfell",
    "type": "sj",
    "owner": "Landsvirkjun",
    "lat": 64.1955795288,
    "lon": -19.0466709137,
    "ele": 539.5,
    "start": 2004,
    "ending": null
  },
  {
    "station": 6657,
    "name": "Veiðivatnahraun",
    "type": "sj",
    "owner": "Landsvirkjun",
    "lat": 64.3951034546,
    "lon": -18.5047702789,
    "ele": 647,
    "start": 1993,
    "ending": null
  },
  {
    "station": 6670,
    "name": "Jökulheimar",
    "type": "sj",
    "owner": "Landsvirkjun",
    "lat": 64.3163223267,
    "lon": -18.2208003998,
    "ele": 726,
    "start": 1993,
    "ending": null
  },
  {
    "station": 6745,
    "name": "Kerlingarfjöll - Ásgarðsfjall",
    "type": "sj",
    "owner": "Veðurstofa Íslands",
    "lat": 64.6809997559,
    "lon": -19.282699585,
    "ele": 925,
    "start": 2017,
    "ending": null
  },
  {
    "station": 6748,
    "name": "Setur",
    "type": "sj",
    "owner": "Landsvirkjun",
    "lat": 64.6043014526,
    "lon": -19.0186004639,
    "ele": 693,
    "start": 1997,
    "ending": null
  },
  {
    "station": 6760,
    "name": "Þúfuver",
    "type": "sj",
    "owner": "Landsvirkjun",
    "lat": 64.5818023682,
    "lon": -18.5976009369,
    "ele": 620,
    "start": 1993,
    "ending": null
  },
  {
    "station": 6776,
    "name": "Hágöngur",
    "type": "sj",
    "owner": "Landsvirkjun",
    "lat": 64.5711669922,
    "lon": -18.1110801697,
    "ele": 819,
    "start": 2004,
    "ending": 2024
  },
  {
    "station": 6802,
    "name": "Húsafell",
    "type": "sj",
    "owner": "Veðurstofa Íslands",
    "lat": 64.6989822388,
    "lon": -20.8689994812,
    "ele": 132.8000030518,
    "start": 1998,
    "ending": null
  },
  {
    "station": 6935,
    "name": "Hveravellir",
    "type": "sj",
    "owner": "Veðurstofa Íslands",
    "lat": 64.8667526245,
    "lon": -19.5622196198,
    "ele": 641,
    "start": 1996,
    "ending": null
  },
  {
    "station": 6975,
    "name": "Sandbúðir",
    "type": "sj",
    "owner": "Landsvirkjun",
    "lat": 64.9330978394,
    "lon": -17.9890003204,
    "ele": 820,
    "start": 1993,
    "ending": null
  },
  {
    "station": 7078,
    "name": "Sómastaðagerði",
    "type": "sj",
    "owner": "Veðurstofa Íslands",
    "lat": 65.0331192017,
    "lon": -14.111000061,
    "ele": 31.3999996185,
    "start": 1998,
    "ending": 2003
  },
  {
    "station": 7272,
    "name": "Kirkjubæjarklaustur - hitamælaskýli",
    "type": "sj",
    "owner": "Veðurstofa Íslands",
    "lat": 63.7919998169,
    "lon": -18.0510005951,
    "ele": 38.2999992371,
    "start": 2008,
    "ending": 2012
  },
  {
    "station": 7475,
    "name": "Reykjavík búveðurstöð",
    "type": "sj",
    "owner": "Veðurstofa Íslands",
    "lat": 64.1274337769,
    "lon": -21.9024295807,
    "ele": 52,
    "start": 2000,
    "ending": 2024
  },
  {
    "station": 7477,
    "name": "Reykjavík tilraunastöð",
    "type": "sj",
    "owner": "Veðurstofa Íslands",
    "lat": 64.1290664673,
    "lon": -21.9080104828,
    "ele": 60.2000007629,
    "start": 2018,
    "ending": 2022
  },
  {
    "station": 7601,
    "name": "Auðbjargarstaðabrekka",
    "type": "sj",
    "owner": "Veðurstofa Íslands",
    "lat": 66.0996170044,
    "lon": -16.9701805115,
    "ele": 192,
    "start": 1998,
    "ending": 2002
  },
  {
    "station": 7631,
    "name": "Flateyri Innra Bæjargil",
    "type": "sj",
    "owner": "Veðurstofa Íslands - Ofanflóð",
    "lat": 66.0635986328,
    "lon": -23.5020008087,
    "ele": 590,
    "start": 2020,
    "ending": null
  },
  {
    "station": 7633,
    "name": "Flateyri Eyrarfjall",
    "type": "sj",
    "owner": "Veðurstofa Íslands - Ofanflóð",
    "lat": 66.0690994263,
    "lon": -23.4946498871,
    "ele": 640,
    "start": 2021,
    "ending": null
  },
  {
    "station": 7659,
    "name": "Ólafsfjörður - Tindaöxl",
    "type": "sj",
    "owner": "Veðurstofa Íslands - Ofanflóð",
    "lat": 66.0630264282,
    "lon": -18.6308994293,
    "ele": 450,
    "start": 2006,
    "ending": null
  },
  {
    "station": 7736,
    "name": "Bolungarvík - Traðargil",
    "type": "sj",
    "owner": "Veðurstofa Íslands - Ofanflóð",
    "lat": 66.1684188843,
    "lon": -23.2680702209,
    "ele": 500,
    "start": 2006,
    "ending": null
  },
  {
    "station": 7738,
    "name": "Bolungarvík - Snjóflóðavarnargarður",
    "type": "sj",
    "owner": "Veðurstofa Íslands - Ofanflóð",
    "lat": 66.1605529785,
    "lon": -23.2646808624,
    "ele": 45,
    "start": 2016,
    "ending": null
  },
  {
    "station": 7753,
    "name": "Siglufjörður - Hafnarfjall",
    "type": "sj",
    "owner": "Veðurstofa Íslands - Ofanflóð",
    "lat": 66.1535263062,
    "lon": -18.9351997375,
    "ele": 550,
    "start": 2006,
    "ending": null
  },
  {
    "station": 7777,
    "name": "Hvanneyri akur",
    "type": "sj",
    "owner": "Veðurstofa Íslands",
    "lat": 64.5675964355,
    "lon": -21.7411003113,
    "ele": 10,
    "start": 2023,
    "ending": null
  },
  {
    "station": 7790,
    "name": "Dyngjujökull",
    "type": "sj",
    "owner": "Veðurstofa Íslands",
    "lat": 64.5038986206,
    "lon": -17.2348003387,
    "ele": 1689,
    "start": 2016,
    "ending": 2023
  },
  {
    "station": 31109,
    "name": "Arnarnesvegur",
    "type": "sj",
    "owner": "Vegagerðin",
    "lat": 64.0887527466,
    "lon": -21.8365707397,
    "ele": 116.4000015259,
    "start": 2016,
    "ending": null
  },
  {
    "station": 31122,
    "name": "Miklidalur",
    "type": "sj",
    "owner": "Vegagerðin",
    "lat": 65.5807037354,
    "lon": -23.8551998138,
    "ele": 370,
    "start": 2009,
    "ending": null
  },
  {
    "station": 31363,
    "name": "Reykjanesbraut",
    "type": "sj",
    "owner": "Vegagerðin",
    "lat": 64.0026702881,
    "lon": -22.2295703888,
    "ele": 25,
    "start": 1995,
    "ending": null
  },
  {
    "station": 31364,
    "name": "Grindavíkurvegur",
    "type": "sj",
    "owner": "Vegagerðin",
    "lat": 63.8683280945,
    "lon": -22.4235305786,
    "ele": 57,
    "start": 2012,
    "ending": 2024
  },
  {
    "station": 31365,
    "name": "Festarfjall",
    "type": "sj",
    "owner": "Vegagerðin",
    "lat": 63.8594818115,
    "lon": -22.343580246,
    "ele": 135,
    "start": 2012,
    "ending": null
  },
  {
    "station": 31380,
    "name": "Selvogur",
    "type": "sj",
    "owner": "Vegagerðin",
    "lat": 63.8456001282,
    "lon": -21.6958503723,
    "ele": 20,
    "start": 2012,
    "ending": null
  },
  {
    "station": 31387,
    "name": "Þrengsli",
    "type": "sj",
    "owner": "Vegagerðin",
    "lat": 63.9875717163,
    "lon": -21.4632797241,
    "ele": 260,
    "start": 1997,
    "ending": null
  },
  {
    "station": 31392,
    "name": "Hellisheiði",
    "type": "sj",
    "owner": "Vegagerðin",
    "lat": 64.0187835693,
    "lon": -21.3423805237,
    "ele": 360,
    "start": 1992,
    "ending": null
  },
  {
    "station": 31399,
    "name": "Ingólfsfjall",
    "type": "sj",
    "owner": "Vegagerðin",
    "lat": 63.9574012756,
    "lon": -21.0632801056,
    "ele": 51,
    "start": 2006,
    "ending": null
  },
  {
    "station": 31475,
    "name": "Garðabær - Kauptún",
    "type": "sj",
    "owner": "Vegagerðin",
    "lat": 64.0796508789,
    "lon": -21.9028701782,
    "ele": 42,
    "start": 2017,
    "ending": null
  },
  {
    "station": 31484,
    "name": "Sandskeið",
    "type": "sj",
    "owner": "Vegagerðin",
    "lat": 64.0594329834,
    "lon": -21.5282993317,
    "ele": 190,
    "start": 1999,
    "ending": 2012
  },
  {
    "station": 31488,
    "name": "Sandskeið",
    "type": "sj",
    "owner": "Vegagerðin",
    "lat": 64.0624008179,
    "lon": -21.5576992035,
    "ele": 180,
    "start": 2012,
    "ending": null
  },
  {
    "station": 31561,
    "name": "Einarsnes í Skerjafirði",
    "type": "sj",
    "owner": "Gatnamálastjórinn í Reykjavík",
    "lat": 64.1307678223,
    "lon": -21.9530296326,
    "ele": 10,
    "start": 1998,
    "ending": 2011
  },
  {
    "station": 31572,
    "name": "Akrafjall",
    "type": "sj",
    "owner": "Vegagerðin",
    "lat": 64.3105163574,
    "lon": -21.9660491943,
    "ele": 37,
    "start": 2009,
    "ending": null
  },
  {
    "station": 31577,
    "name": "Blikdalsá",
    "type": "sj",
    "owner": "Vegagerðin",
    "lat": 64.2664031982,
    "lon": -21.8328800201,
    "ele": 46,
    "start": 2012,
    "ending": null
  },
  {
    "station": 31578,
    "name": "Tíðaskarð",
    "type": "sj",
    "owner": "Vegagerðin",
    "lat": 64.2870330811,
    "lon": -21.8119792938,
    "ele": 65,
    "start": 2020,
    "ending": null
  },
  {
    "station": 31579,
    "name": "Kjalarnes",
    "type": "sj",
    "owner": "Vegagerðin",
    "lat": 64.210647583,
    "lon": -21.7667007446,
    "ele": 10,
    "start": 1998,
    "ending": null
  },
  {
    "station": 31591,
    "name": "Mosfellsheiði",
    "type": "sj",
    "owner": "Vegagerðin",
    "lat": 64.2140426636,
    "lon": -21.3447704315,
    "ele": 270,
    "start": 2012,
    "ending": null
  },
  {
    "station": 31599,
    "name": "Gjábakki",
    "type": "sj",
    "owner": "Vegagerðin",
    "lat": 64.2481231689,
    "lon": -21.0230293274,
    "ele": 132,
    "start": 2012,
    "ending": null
  },
  {
    "station": 31640,
    "name": "Reykjanesviti",
    "type": "sj",
    "owner": "Vegagerðin",
    "lat": 63.8156089783,
    "lon": -22.7043209076,
    "ele": 20,
    "start": 2021,
    "ending": null
  },
  {
    "station": 31674,
    "name": "Hafnarfjall",
    "type": "sj",
    "owner": "Vegagerðin",
    "lat": 64.4754714966,
    "lon": -21.9602794647,
    "ele": 25,
    "start": 1995,
    "ending": null
  },
  {
    "station": 31840,
    "name": "Hraunsmúli",
    "type": "sj",
    "owner": "Vegagerðin",
    "lat": 64.8220672607,
    "lon": -23.1893501282,
    "ele": 10,
    "start": 1999,
    "ending": null
  },
  {
    "station": 31882,
    "name": "Kolás",
    "type": "sj",
    "owner": "Vegagerðin",
    "lat": 64.6955566406,
    "lon": -21.6359004974,
    "ele": 66,
    "start": 2012,
    "ending": null
  },
  {
    "station": 31931,
    "name": "Fróðárheiði",
    "type": "sj",
    "owner": "Vegagerðin",
    "lat": 64.847869873,
    "lon": -23.48072052,
    "ele": 361,
    "start": 1995,
    "ending": null
  },
  {
    "station": 31932,
    "name": "Búlandshöfði",
    "type": "sj",
    "owner": "Vegagerðin",
    "lat": 64.9365692139,
    "lon": -23.5033493042,
    "ele": 25,
    "start": 2010,
    "ending": null
  },
  {
    "station": 31942,
    "name": "Kolgrafafjarðarbrú",
    "type": "sj",
    "owner": "Vegagerðin",
    "lat": 64.9664535522,
    "lon": -23.1259994507,
    "ele": 3,
    "start": 2005,
    "ending": null
  },
  {
    "station": 31948,
    "name": "Vatnaleið",
    "type": "sj",
    "owner": "Vegagerðin",
    "lat": 64.9095230103,
    "lon": -22.8649196625,
    "ele": 226,
    "start": 2001,
    "ending": null
  },
  {
    "station": 31950,
    "name": "Stórholt",
    "type": "sj",
    "owner": "Vegagerðin",
    "lat": 64.9859008789,
    "lon": -22.8085002899,
    "ele": 70,
    "start": 2012,
    "ending": null
  },
  {
    "station": 31958,
    "name": "Hafursfell",
    "type": "sj",
    "owner": "Vegagerðin",
    "lat": 64.8309783936,
    "lon": -22.5328197479,
    "ele": 65,
    "start": 2009,
    "ending": null
  },
  {
    "station": 31985,
    "name": "Brattabrekka",
    "type": "sj",
    "owner": "Vegagerðin",
    "lat": 64.8716278076,
    "lon": -21.5154495239,
    "ele": 390,
    "start": 1998,
    "ending": null
  },
  {
    "station": 32097,
    "name": "Holtavörðuheiði",
    "type": "sj",
    "owner": "Vegagerðin",
    "lat": 64.9899215698,
    "lon": -21.0576190948,
    "ele": 370,
    "start": 1995,
    "ending": null
  },
  {
    "station": 32179,
    "name": "Svínadalur í Dölum",
    "type": "sj",
    "owner": "Vegagerðin",
    "lat": 65.305847168,
    "lon": -21.7396202087,
    "ele": 230,
    "start": 2002,
    "ending": null
  },
  {
    "station": 32190,
    "name": "Laxárdalsheiði",
    "type": "sj",
    "owner": "Vegagerðin",
    "lat": 65.2065811157,
    "lon": -21.3276805878,
    "ele": 200,
    "start": 2000,
    "ending": null
  },
  {
    "station": 32224,
    "name": "Kleifaheiði",
    "type": "sj",
    "owner": "Vegagerðin",
    "lat": 65.5171737671,
    "lon": -23.7210998535,
    "ele": 400,
    "start": 1996,
    "ending": null
  },
  {
    "station": 32250,
    "name": "Flatey á Breiðafirði",
    "type": "sj",
    "owner": "Vegagerðin",
    "lat": 65.3719024658,
    "lon": -22.928560257,
    "ele": 6,
    "start": 2023,
    "ending": null
  },
  {
    "station": 32282,
    "name": "Gilsfjörður",
    "type": "sj",
    "owner": "Vegagerðin",
    "lat": 65.4184036255,
    "lon": -21.9006309509,
    "ele": 20,
    "start": 1993,
    "ending": 2012
  },
  {
    "station": 32322,
    "name": "Hálfdán",
    "type": "sj",
    "owner": "Vegagerðin",
    "lat": 65.6444473267,
    "lon": -23.7105808258,
    "ele": 525,
    "start": 1995,
    "ending": null
  },
  {
    "station": 32355,
    "name": "Klettsháls",
    "type": "sj",
    "owner": "Vegagerðin",
    "lat": 65.6549682617,
    "lon": -22.6088294983,
    "ele": 330,
    "start": 1999,
    "ending": null
  },
  {
    "station": 32365,
    "name": "Hjallaháls",
    "type": "sj",
    "owner": "Vegagerðin",
    "lat": 65.5640029907,
    "lon": -22.2460803986,
    "ele": 305,
    "start": 2012,
    "ending": null
  },
  {
    "station": 32372,
    "name": "Gillastaðamelar",
    "type": "sj",
    "owner": "Vegagerðin",
    "lat": 65.5277175903,
    "lon": -22.0233802795,
    "ele": 72,
    "start": 2009,
    "ending": null
  },
  {
    "station": 32377,
    "name": "Þröskuldar",
    "type": "sj",
    "owner": "Vegagerðin",
    "lat": 65.5524215698,
    "lon": -21.8330192566,
    "ele": 370,
    "start": 2009,
    "ending": null
  },
  {
    "station": 32390,
    "name": "Ennisháls",
    "type": "sj",
    "owner": "Vegagerðin",
    "lat": 65.5723724365,
    "lon": -21.329000473,
    "ele": 260,
    "start": 1998,
    "ending": null
  },
  {
    "station": 32474,
    "name": "Steingrímsfjarðarheiði",
    "type": "sj",
    "owner": "Vegagerðin",
    "lat": 65.7503204346,
    "lon": -22.1291294098,
    "ele": 440,
    "start": 1995,
    "ending": null
  },
  {
    "station": 32533,
    "name": "Gemlufallsheiði",
    "type": "sj",
    "owner": "Vegagerðin",
    "lat": 65.9400024414,
    "lon": -23.4363994598,
    "ele": 250,
    "start": 2009,
    "ending": null
  },
  {
    "station": 32635,
    "name": "Botn í Súgandafirði",
    "type": "sj",
    "owner": "Vegagerðin",
    "lat": 66.0808334351,
    "lon": -23.3733005524,
    "ele": 270,
    "start": 2012,
    "ending": null
  },
  {
    "station": 32643,
    "name": "Óshlíð",
    "type": "sj",
    "owner": "Vegagerðin",
    "lat": 66.1279830933,
    "lon": -23.1333503723,
    "ele": 24,
    "start": 2006,
    "ending": 2012
  },
  {
    "station": 32654,
    "name": "Ögur",
    "type": "sj",
    "owner": "Vegagerðin",
    "lat": 66.044883728,
    "lon": -22.6816997528,
    "ele": 40,
    "start": 1997,
    "ending": null
  },
  {
    "station": 33142,
    "name": "Eyvindarstaðaheiði",
    "type": "sj",
    "owner": "Vegagerðin",
    "lat": 65.2524719238,
    "lon": -19.312379837,
    "ele": 711,
    "start": 2004,
    "ending": 2012
  },
  {
    "station": 33204,
    "name": "Gauksmýri",
    "type": "sj",
    "owner": "Vegagerðin",
    "lat": 65.3444213867,
    "lon": -20.8039798737,
    "ele": 120,
    "start": 2006,
    "ending": null
  },
  {
    "station": 33357,
    "name": "Öxnadalsheiði",
    "type": "sj",
    "owner": "Vegagerðin",
    "lat": 65.4676208496,
    "lon": -18.698720932,
    "ele": 540,
    "start": 1995,
    "ending": null
  },
  {
    "station": 33394,
    "name": "Mývatnsheiði",
    "type": "sj",
    "owner": "Vegagerðin",
    "lat": 65.6142501831,
    "lon": -17.2168998718,
    "ele": 350,
    "start": 1999,
    "ending": null
  },
  {
    "station": 33419,
    "name": "Blönduós Vegagerðarstöð",
    "type": "sj",
    "owner": "Vegagerðin",
    "lat": 65.6667785645,
    "lon": -20.2382698059,
    "ele": 40,
    "start": 1998,
    "ending": null
  },
  {
    "station": 33424,
    "name": "Þverárfjall",
    "type": "sj",
    "owner": "Vegagerðin",
    "lat": 65.7800521851,
    "lon": -20.0185508728,
    "ele": 330,
    "start": 2003,
    "ending": null
  },
  {
    "station": 33431,
    "name": "Vatnsskarð",
    "type": "sj",
    "owner": "Vegagerðin",
    "lat": 65.5084991455,
    "lon": -19.6944999695,
    "ele": 420,
    "start": 1996,
    "ending": null
  },
  {
    "station": 33451,
    "name": "Miðsitja í Skagafirði",
    "type": "sj",
    "owner": "Vegagerðin",
    "lat": 65.4900970459,
    "lon": -19.2862796783,
    "ele": 41,
    "start": 2017,
    "ending": null
  },
  {
    "station": 33480,
    "name": "Kaldakinn",
    "type": "sj",
    "owner": "Vegagerðin",
    "lat": 65.7426071167,
    "lon": -17.591999054,
    "ele": 120,
    "start": 2013,
    "ending": null
  },
  {
    "station": 33487,
    "name": "Fljótsheiði",
    "type": "sj",
    "owner": "Vegagerðin",
    "lat": 65.6970062256,
    "lon": -17.5032291412,
    "ele": 238,
    "start": 2012,
    "ending": null
  },
  {
    "station": 33495,
    "name": "Hólasandur",
    "type": "sj",
    "owner": "Vegagerðin",
    "lat": 65.7373733521,
    "lon": -17.105670929,
    "ele": 350,
    "start": 1996,
    "ending": null
  },
  {
    "station": 33563,
    "name": "Hámundarstaðaháls",
    "type": "sj",
    "owner": "Vegagerðin",
    "lat": 65.951751709,
    "lon": -18.459280014,
    "ele": 103,
    "start": 2008,
    "ending": null
  },
  {
    "station": 33576,
    "name": "Víkurskarð",
    "type": "sj",
    "owner": "Vegagerðin",
    "lat": 65.8140029907,
    "lon": -17.9911994934,
    "ele": 325,
    "start": 1995,
    "ending": null
  },
  {
    "station": 33643,
    "name": "Stafá",
    "type": "sj",
    "owner": "Vegagerðin",
    "lat": 66.0710830688,
    "lon": -19.2784500122,
    "ele": 40,
    "start": 2012,
    "ending": null
  },
  {
    "station": 33652,
    "name": "Hólshyrna",
    "type": "sj",
    "owner": "Vegagerðin",
    "lat": 66.1316833496,
    "lon": -18.9022808075,
    "ele": 56,
    "start": 2020,
    "ending": null
  },
  {
    "station": 33654,
    "name": "Héðinsfjörður",
    "type": "sj",
    "owner": "Vegagerðin",
    "lat": 66.1022262573,
    "lon": -18.8129501343,
    "ele": 20,
    "start": 2010,
    "ending": null
  },
  {
    "station": 33661,
    "name": "Ólafsfjarðarvegur við Sauðanes",
    "type": "sj",
    "owner": "Vegagerðin",
    "lat": 66.042350769,
    "lon": -18.5207500458,
    "ele": 73,
    "start": 2010,
    "ending": null
  },
  {
    "station": 33750,
    "name": "Siglufjarðarvegur",
    "type": "sj",
    "owner": "Vegagerðin",
    "lat": 66.1289825439,
    "lon": -19.0721302032,
    "ele": 20,
    "start": 1995,
    "ending": null
  },
  {
    "station": 33751,
    "name": "Siglufjarðarvegur Herkonugil",
    "type": "sj",
    "owner": "Vegagerðin",
    "lat": 66.1783676147,
    "lon": -18.9752006531,
    "ele": 66,
    "start": 2010,
    "ending": null
  },
  {
    "station": 34073,
    "name": "Fagridalur",
    "type": "sj",
    "owner": "Vegagerðin",
    "lat": 65.1264190674,
    "lon": -14.3326702118,
    "ele": 350,
    "start": 1996,
    "ending": null
  },
  {
    "station": 34075,
    "name": "Fáskrúðsfjarðargöng norður",
    "type": "sj",
    "owner": "Vegagerðin",
    "lat": 65.0100021362,
    "lon": -14.1979999542,
    "ele": 135,
    "start": 2007,
    "ending": 2012
  },
  {
    "station": 34081,
    "name": "Græfur í Fagradal",
    "type": "sj",
    "owner": "Vegagerðin",
    "lat": 65.1681671143,
    "lon": -14.3389501572,
    "ele": 322,
    "start": 2017,
    "ending": null
  },
  {
    "station": 34087,
    "name": "Oddsskarð",
    "type": "sj",
    "owner": "Vegagerðin",
    "lat": 65.0637283325,
    "lon": -13.9187297821,
    "ele": 520,
    "start": 1995,
    "ending": null
  },
  {
    "station": 34148,
    "name": "Jökuldalur",
    "type": "sj",
    "owner": "Vegagerðin",
    "lat": 65.3019485474,
    "lon": -15.2237300873,
    "ele": 473,
    "start": 2012,
    "ending": null
  },
  {
    "station": 34175,
    "name": "Fjarðarheiði",
    "type": "sj",
    "owner": "Vegagerðin",
    "lat": 65.26612854,
    "lon": -14.2589702606,
    "ele": 600,
    "start": 1995,
    "ending": null
  },
  {
    "station": 34238,
    "name": "Möðrudalsöræfi II",
    "type": "sj",
    "owner": "Vegagerðin",
    "lat": 65.4569778442,
    "lon": -15.5854997635,
    "ele": 550,
    "start": 2000,
    "ending": null
  },
  {
    "station": 34326,
    "name": "Biskupsháls",
    "type": "sj",
    "owner": "Vegagerðin",
    "lat": 65.5583496094,
    "lon": -16.0113296509,
    "ele": 521,
    "start": 2007,
    "ending": null
  },
  {
    "station": 34347,
    "name": "Vopnafjarðarheiði",
    "type": "sj",
    "owner": "Vegagerðin",
    "lat": 65.591178894,
    "lon": -15.2921800613,
    "ele": 484,
    "start": 2001,
    "ending": 2012
  },
  {
    "station": 34348,
    "name": "Vopnafjarðarheiði",
    "type": "sj",
    "owner": "Vegagerðin",
    "lat": 65.5946502686,
    "lon": -15.315779686,
    "ele": 440,
    "start": 2012,
    "ending": null
  },
  {
    "station": 34382,
    "name": "Vatnsskarð eystra",
    "type": "sj",
    "owner": "Vegagerðin",
    "lat": 65.5623321533,
    "lon": -13.9897298813,
    "ele": 430,
    "start": 1999,
    "ending": null
  },
  {
    "station": 34413,
    "name": "Mývatnsöræfi",
    "type": "sj",
    "owner": "Vegagerðin",
    "lat": 65.6575698853,
    "lon": -16.5005702972,
    "ele": 390,
    "start": 1998,
    "ending": null
  },
  {
    "station": 34415,
    "name": "Dettifoss",
    "type": "sj",
    "owner": "Vegagerðin",
    "lat": 65.8149490356,
    "lon": -16.4430809021,
    "ele": 373,
    "start": 2022,
    "ending": null
  },
  {
    "station": 34450,
    "name": "Hauksstaðir",
    "type": "sj",
    "owner": "Vegagerðin",
    "lat": 65.6570663452,
    "lon": -15.1651802063,
    "ele": 212,
    "start": 2012,
    "ending": null
  },
  {
    "station": 34559,
    "name": "Sandvíkurheiði",
    "type": "sj",
    "owner": "Vegagerðin",
    "lat": 65.8913726807,
    "lon": -14.8253202438,
    "ele": 275,
    "start": 1997,
    "ending": null
  },
  {
    "station": 34700,
    "name": "Tjörnes - Gerðibrekka",
    "type": "sj",
    "owner": "Vegagerðin",
    "lat": 66.1486816406,
    "lon": -16.9752292633,
    "ele": 93,
    "start": 2004,
    "ending": null
  },
  {
    "station": 34732,
    "name": "Hófaskarð",
    "type": "sj",
    "owner": "Vegagerðin",
    "lat": 66.2984313965,
    "lon": -15.8932695389,
    "ele": 217,
    "start": 2010,
    "ending": null
  },
  {
    "station": 34733,
    "name": "Hálsar",
    "type": "sj",
    "owner": "Vegagerðin",
    "lat": 66.2531509399,
    "lon": -15.8161296844,
    "ele": 180,
    "start": 1995,
    "ending": null
  },
  {
    "station": 35107,
    "name": "Hvaldalsá",
    "type": "sj",
    "owner": "Vegagerðin",
    "lat": 64.4201965332,
    "lon": -14.5375795364,
    "ele": 110,
    "start": 2016,
    "ending": null
  },
  {
    "station": 35116,
    "name": "Borgarhöfn",
    "type": "sj",
    "owner": "Vegagerðin",
    "lat": 64.1848297119,
    "lon": -15.814499855,
    "ele": 20,
    "start": 2019,
    "ending": null
  },
  {
    "station": 35305,
    "name": "Öræfi",
    "type": "sj",
    "owner": "Vegagerðin",
    "lat": 63.9386787415,
    "lon": -16.7958507538,
    "ele": 75,
    "start": 1995,
    "ending": null
  },
  {
    "station": 35315,
    "name": "Kvísker Vegagerðarstöð",
    "type": "sj",
    "owner": "Vegagerðin",
    "lat": 63.9595985413,
    "lon": -16.4244194031,
    "ele": 30,
    "start": 2002,
    "ending": null
  },
  {
    "station": 35666,
    "name": "Hvalnes",
    "type": "sj",
    "owner": "Vegagerðin",
    "lat": 64.4074172974,
    "lon": -14.5393295288,
    "ele": 20,
    "start": 2000,
    "ending": null
  },
  {
    "station": 35769,
    "name": "Hamarsfjörður",
    "type": "sj",
    "owner": "Vegagerðin",
    "lat": 64.6558227539,
    "lon": -14.4527196884,
    "ele": 19,
    "start": 2010,
    "ending": null
  },
  {
    "station": 35880,
    "name": "Streiti",
    "type": "sj",
    "owner": "Vegagerðin",
    "lat": 64.7199478149,
    "lon": -14.0362796783,
    "ele": 10,
    "start": 2008,
    "ending": null
  },
  {
    "station": 35884,
    "name": "Kambaskriður",
    "type": "sj",
    "owner": "Vegagerðin",
    "lat": 64.7981491089,
    "lon": -13.8901195526,
    "ele": 37,
    "start": 2010,
    "ending": null
  },
  {
    "station": 35963,
    "name": "Öxi",
    "type": "sj",
    "owner": "Vegagerðin",
    "lat": 64.8257293701,
    "lon": -14.6573200226,
    "ele": 531,
    "start": 2006,
    "ending": null
  },
  {
    "station": 35965,
    "name": "Breiðdalsheiði",
    "type": "sj",
    "owner": "Vegagerðin",
    "lat": 64.906829834,
    "lon": -14.6033697128,
    "ele": 480,
    "start": 1997,
    "ending": null
  },
  {
    "station": 35978,
    "name": "Fáskrúðsfjarðargöng suður",
    "type": "sj",
    "owner": "Vegagerðin",
    "lat": 64.9619979858,
    "lon": -14.1750001907,
    "ele": 135,
    "start": 2008,
    "ending": 2012
  },
  {
    "station": 35985,
    "name": "Víkurgerði",
    "type": "sj",
    "owner": "Vegagerðin",
    "lat": 64.8956222534,
    "lon": -13.8547000885,
    "ele": 40,
    "start": 2018,
    "ending": null
  },
  {
    "station": 36049,
    "name": "Reynisfjall",
    "type": "sj",
    "owner": "Vegagerðin",
    "lat": 63.4520683289,
    "lon": -19.0377502441,
    "ele": 125,
    "start": 2009,
    "ending": null
  },
  {
    "station": 36122,
    "name": "Markarfljót",
    "type": "sj",
    "owner": "Vegagerðin",
    "lat": 63.6215705872,
    "lon": -20.0285205841,
    "ele": 42,
    "start": 2010,
    "ending": null
  },
  {
    "station": 36127,
    "name": "Hvammur",
    "type": "sj",
    "owner": "Vegagerðin",
    "lat": 63.5784301758,
    "lon": -19.9016208649,
    "ele": 20,
    "start": 2001,
    "ending": null
  },
  {
    "station": 36132,
    "name": "Steinar",
    "type": "sj",
    "owner": "Vegagerðin",
    "lat": 63.5429191589,
    "lon": -19.6905708313,
    "ele": 20,
    "start": 1997,
    "ending": null
  },
  {
    "station": 36156,
    "name": "Mýrdalssandur",
    "type": "sj",
    "owner": "Vegagerðin",
    "lat": 63.4661483765,
    "lon": -18.604429245,
    "ele": 35,
    "start": 1995,
    "ending": null
  },
  {
    "station": 36270,
    "name": "Eldhraun",
    "type": "sj",
    "owner": "Vegagerðin",
    "lat": 63.7337684631,
    "lon": -18.197719574,
    "ele": 90,
    "start": 2014,
    "ending": null
  },
  {
    "station": 36308,
    "name": "Þjórsárbrú",
    "type": "sj",
    "owner": "Vegagerðin",
    "lat": 63.9306182861,
    "lon": -20.6653003693,
    "ele": 49,
    "start": 2004,
    "ending": null
  },
  {
    "station": 36386,
    "name": "Lómagnúpur",
    "type": "sj",
    "owner": "Vegagerðin",
    "lat": 63.9574508667,
    "lon": -17.5550308228,
    "ele": 55,
    "start": 1999,
    "ending": null
  },
  {
    "station": 36391,
    "name": "Gígjukvísl",
    "type": "sj",
    "owner": "Vegagerðin",
    "lat": 63.9362182617,
    "lon": -17.3502693176,
    "ele": 58,
    "start": 2014,
    "ending": null
  },
  {
    "station": 36411,
    "name": "Skálholt",
    "type": "sj",
    "owner": "Vegagerðin",
    "lat": 64.1322784424,
    "lon": -20.5307807922,
    "ele": 60,
    "start": 1998,
    "ending": null
  },
  {
    "station": 36415,
    "name": "Bræðratunguvegur",
    "type": "sj",
    "owner": "Vegagerðin",
    "lat": 64.1575012207,
    "lon": -20.3677997589,
    "ele": 66,
    "start": 2012,
    "ending": null
  },
  {
    "station": 36504,
    "name": "Lyngdalsheiði",
    "type": "sj",
    "owner": "Vegagerðin",
    "lat": 64.2018203735,
    "lon": -20.8062000275,
    "ele": 215,
    "start": 2010,
    "ending": null
  },
  {
    "station": 36519,
    "name": "Gullfoss",
    "type": "sj",
    "owner": "Vegagerðin",
    "lat": 64.3076705933,
    "lon": -20.2119007111,
    "ele": 191,
    "start": 2001,
    "ending": null
  }
]
